[
  {
    "id": "a8be3403-b0a0-4b77-ad0a-9084d1b8d386",
    "slug": "sample-hotel",
    "images": [],
    "title": "Sample Hotel",
    "description": "A cozy hotel in the heart of the city",
    "guestCount": 4,
    "bedroomCount": 2,
    "bathroomCount": 1,
    "amenities": [
      "WiFi",
      "Pool",
      "Gym"
    ],
    "host": {
      "name": "John Doe",
      "avatar": "https://example.com/avatar.jpg"
    },
    "address": {
      "street": "123 Main St",
      "city": "Sample City",
      "state": "State",
      "country": "Country",
      "zip": "12345"
    },
    "location": {
      "latitude": 40.7128,
      "longitude": -74.006
    },
    "rooms": [
      {
        "slug": "deluxe-room",
        "image": "https://example.com/room.jpg",
        "title": "Deluxe Room",
        "bedroomCount": 1
      }
    ]
  },
  {
    "id": "3dcc829e-cb40-4e58-9bd0-cbfb6605f923",
    "slug": "test-hotel",
    "images": [
      "/uploads/test-hotel-images-1731905693780-52738888.jpeg"
    ],
    "title": "Test Hotel",
    "description": "Test Description",
    "guestCount": 2,
    "bedroomCount": 1,
    "bathroomCount": 1,
    "amenities": [],
    "host": {
      "name": "Test Host",
      "avatar": "test.jpg"
    },
    "address": {
      "street": "Test Street",
      "city": "Test City",
      "state": "Test State",
      "country": "Test Country",
      "zip": "12345"
    },
    "location": {
      "latitude": 0,
      "longitude": 0
    },
    "rooms": []
  },
  {
    "id": "401d10a9-6879-4853-8943-81ff797f718a",
    "slug": "luxury-ocean-view-resort",
    "images": [
      "/uploads/luxury-ocean-view-resort-images-1731905745886-436855012.jpeg",
      "/uploads/luxury-ocean-view-resort-images-1731905745886-650039049.jpeg"
    ],
    "title": "Luxury Ocean View Resort",
    "description": "A beautiful resort overlooking the Pacific Ocean",
    "guestCount": 4,
    "bedroomCount": 2,
    "bathroomCount": 2,
    "amenities": [
      "WiFi",
      "Pool",
      "Beach Access",
      "Spa"
    ],
    "host": {
      "name": "John Doe",
      "avatar": "host-avatar.jpg"
    },
    "address": {
      "street": "123 Beach Road",
      "city": "Malibu",
      "state": "California",
      "country": "USA",
      "zip": "90265"
    },
    "location": {
      "latitude": 34.025922,
      "longitude": -118.779757
    },
    "rooms": [
      {
        "slug": "master-suite",
        "image": "master-suite.jpg",
        "title": "Master Suite",
        "bedroomCount": 1
      }
    ]
  },
  {
    "id": "92ac374d-2adc-48c9-a98c-3abb4c0ee23c",
    "slug": "test-hotel",
    "images": [],
    "title": "Test Hotel",
    "description": "Test Description",
    "guestCount": 2,
    "bedroomCount": 1,
    "bathroomCount": 1,
    "amenities": [
      "WiFi"
    ],
    "host": {
      "name": "Test Host",
      "avatar": "test.jpg"
    },
    "address": {
      "street": "Test Street",
      "city": "Test City",
      "state": "Test State",
      "country": "Test Country",
      "zip": "12345"
    },
    "location": {
      "latitude": 0,
      "longitude": 0
    },
    "rooms": []
  },
  {
    "id": "db572845-e1f5-4828-b370-e659c003b05a",
    "slug": "luxe-mountain-retreat",
    "images": [],
    "title": "Luxe Mountain Retreat",
    "description": "Stunning mountain view hotel with modern amenities",
    "guestCount": 4,
    "bedroomCount": 2,
    "bathroomCount": 2,
    "amenities": [
      "WiFi",
      "Pool",
      "Gym"
    ],
    "host": {
      "avatar": "https://example.com/avatar.jpg",
      "name": "John Doe"
    },
    "address": {
      "country": "USA",
      "street": "123 Mountain Road",
      "zip": "80001",
      "state": "CO",
      "city": "Alpine"
    },
    "location": {
      "longitude": -104.9903,
      "latitude": 39.7392
    },
    "rooms": [
      {
        "title": "Mountain View Suite",
        "bedroomCount": 1,
        "slug": "mountain-view-suite",
        "image": "https://example.com/room1.jpg"
      }
    ]
  },
  {
    "id": "24536d04-d617-4e8a-98ad-2e0582f58cd6",
    "slug": "luxe-mountain-retreat",
    "images": [],
    "title": "Luxe Mountain Retreat",
    "description": "Stunning mountain view hotel with modern amenities",
    "guestCount": 4,
    "bedroomCount": 2,
    "bathroomCount": 2,
    "amenities": [
      "WiFi",
      "Pool",
      "Gym"
    ],
    "host": {
      "avatar": "https://example.com/avatar.jpg",
      "name": "John Doe"
    },
    "address": {
      "country": "USA",
      "street": "123 Mountain Road",
      "zip": "80001",
      "state": "CO",
      "city": "Alpine"
    },
    "location": {
      "longitude": -104.9903,
      "latitude": 39.7392
    },
    "rooms": [
      {
        "title": "Mountain View Suite",
        "bedroomCount": 1,
        "slug": "mountain-view-suite",
        "image": "H1.jpeg"
      }
    ]
  }
]